[{"device_id":30001,"lat":43.646601,"lng":-79.389213,"monitor_name":"King St (North of Metro Hall)","aqhi":4},
 {"device_id":30004,"lat":43.650227,"lng":-79.373866,"monitor_name":"Old Toronto","aqhi":6},
 {"device_id":30006,"lat":43.710166,"lng":-79.545547,"monitor_name":"Highway 401","aqhi":1},
 {"device_id":30007,"lat":43.645507,"lng":-79.388687,"monitor_name":"King St (South of Metro Hall)","aqhi":7},
 {"device_id":30009,"lat":43.650764,"lng":-79.382229,"monitor_name":"A.U.G. Signals Ltd.","aqhi":9}]